City_ID,City,Country,Date,Lat,Lng,Max Temp,Humidity,Cloudiness,Wind Speed,Current Description,Rain inches (last 3 hrs),Snow inches (last 3 hrs)
0,Carnarvon,AU,2020-04-19 06:36:30,-24.87,113.63,80.6,61,14,17.22,few clouds,0.0,0.0
1,Avarua,CK,2020-04-19 06:32:56,-21.21,-159.78,78.8,78,47,9.17,scattered clouds,0.0,0.0
2,Polson,US,2020-04-19 06:36:31,47.69,-114.16,42.01,25,99,1.28,light rain,0.0,0.0
3,Lasa,IT,2020-04-19 06:36:31,46.62,10.7,52.0,93,75,6.93,broken clouds,0.0,0.0
4,Busselton,AU,2020-04-19 06:36:31,-33.65,115.33,68.0,34,25,17.52,scattered clouds,0.0,0.0
5,Hithadhoo,MV,2020-04-19 06:36:31,-0.6,73.08,84.49,74,63,11.72,broken clouds,0.0,0.0
6,Archidona,ES,2020-04-19 06:36:31,37.1,-4.39,60.01,93,100,4.0,light rain,1.03,0.0
7,Hobart,AU,2020-04-19 06:36:32,-42.88,147.33,55.99,66,75,9.17,broken clouds,0.0,0.0
8,Ternate,ID,2020-04-19 06:35:57,0.8,127.4,84.85,74,43,4.72,moderate rain,3.21,0.0
9,Nikolskoye,RU,2020-04-19 06:36:32,59.7,30.79,39.0,86,90,11.18,light intensity shower rain,0.0,0.0
10,Punta Arenas,CL,2020-04-19 06:36:33,-53.15,-70.92,41.0,80,75,10.29,broken clouds,0.0,0.0
11,Puerto Ayora,EC,2020-04-19 06:36:33,-0.74,-90.35,79.0,89,13,8.99,light rain,0.2,0.0
12,Jiazi,CN,2020-04-19 06:36:33,22.88,116.07,84.79,55,16,11.79,few clouds,0.0,0.0
13,Lorengau,PG,2020-04-19 06:36:34,-2.02,147.27,84.9,69,10,0.4,light rain,0.28,0.0
14,Port Alfred,ZA,2020-04-19 06:32:46,-33.59,26.89,66.99,81,0,10.0,clear sky,0.0,0.0
15,Bethel,US,2020-04-19 06:36:34,41.37,-73.41,32.0,92,1,6.91,clear sky,0.0,0.0
16,Victoria,HK,2020-04-19 06:36:30,22.29,114.16,82.0,86,29,7.0,scattered clouds,0.0,0.0
17,Nouadhibou,MR,2020-04-19 06:36:34,20.93,-17.03,62.6,88,0,17.22,clear sky,0.0,0.0
18,Goure,NE,2020-04-19 06:36:35,13.98,10.27,78.4,14,35,7.99,scattered clouds,0.0,0.0
19,Namibe,AO,2020-04-19 06:36:35,-15.2,12.15,75.58,69,50,7.05,light rain,0.48,0.0
20,Rikitea,PF,2020-04-19 06:32:35,-23.12,-134.97,77.61,69,82,8.99,broken clouds,0.0,0.0
21,Marevo,RU,2020-04-19 06:36:35,57.31,32.08,35.47,87,96,7.2,light snow,0.0,0.68
22,Barrow,US,2020-04-19 06:35:08,71.29,-156.79,3.2,84,90,6.93,overcast clouds,0.0,0.0
23,Jamestown,US,2020-04-19 06:34:38,42.1,-79.24,44.01,64,1,10.29,clear sky,0.0,0.0
24,Casma,CL,2020-04-19 06:36:36,-41.01,-73.12,51.8,100,66,2.24,light rain,0.28,0.0
25,San Cristobal,VE,2020-04-19 06:36:36,7.77,-72.22,65.93,60,45,0.89,light rain,0.13,0.0
26,Provideniya,RU,2020-04-19 06:32:35,64.38,-173.3,22.5,95,100,14.41,light snow,0.0,0.21
27,Terra Santa,BR,2020-04-19 06:36:36,-2.1,-56.49,73.94,96,94,1.34,moderate rain,4.16,0.0
28,Keti Bandar,PK,2020-04-19 06:36:36,24.14,67.45,86.32,57,73,14.99,broken clouds,0.0,0.0
29,Hermanus,ZA,2020-04-19 06:36:37,-34.42,19.23,66.99,84,93,10.33,overcast clouds,0.0,0.0
30,Jiaocheng,CN,2020-04-19 06:36:37,24.68,116.14,90.14,41,53,6.69,light rain,0.41,0.0
31,Zlobin,HR,2020-04-19 06:36:37,45.29,14.65,59.0,62,94,0.65,overcast clouds,0.0,0.0
32,Bestobe,KZ,2020-04-19 06:36:37,52.5,73.1,64.99,36,89,5.48,overcast clouds,0.0,0.0
33,Tuktoyaktuk,CA,2020-04-19 06:36:37,69.45,-133.04,-0.4,84,75,10.29,broken clouds,0.0,0.0
34,Georgetown,MY,2020-04-19 06:36:38,5.41,100.34,93.2,70,20,8.05,shower rain,0.0,0.0
35,Bluff,NZ,2020-04-19 06:36:38,-46.6,168.33,48.99,77,99,5.99,light rain,0.34,0.0
36,Lebu,CL,2020-04-19 06:36:38,-37.62,-73.65,53.2,90,78,1.45,broken clouds,0.0,0.0
37,Kapaa,US,2020-04-19 06:36:00,22.08,-159.32,75.2,69,75,9.17,broken clouds,0.0,0.0
38,Aljezur,PT,2020-04-19 06:36:39,37.32,-8.8,54.0,91,1,11.95,clear sky,0.0,0.0
39,Castro,BR,2020-04-19 06:35:16,-24.79,-50.01,55.02,68,58,5.26,broken clouds,0.0,0.0
40,Sao Jose Da Coroa Grande,BR,2020-04-19 06:36:39,-8.9,-35.15,78.89,80,89,1.83,light rain,1.34,0.0
41,Tasiilaq,GL,2020-04-19 06:36:39,65.61,-37.64,30.2,92,99,19.46,light snow,0.0,0.0
42,Arraial Do Cabo,BR,2020-04-19 06:36:39,-22.97,-42.03,73.09,65,99,3.24,overcast clouds,0.0,0.0
43,Norman Wells,CA,2020-04-19 06:36:40,65.28,-126.83,32.0,96,90,9.17,light snow,0.0,0.0
44,Atuona,PF,2020-04-19 06:36:40,-9.8,-139.03,82.36,76,74,15.86,broken clouds,0.0,0.0
45,Sfantu Gheorghe,RO,2020-04-19 06:34:19,45.87,25.78,55.0,81,76,1.01,broken clouds,0.0,0.0
46,Kodiak,US,2020-04-19 06:32:49,57.79,-152.41,44.6,75,90,4.7,overcast clouds,0.0,0.0
47,Airai,TL,2020-04-19 06:33:26,-8.93,125.41,72.03,49,37,4.38,light rain,0.12,0.0
48,Vaini,TO,2020-04-19 06:36:41,-21.2,-175.2,78.8,78,40,10.29,smoke,0.0,0.0
49,Bom Jardim,BR,2020-04-19 06:36:41,-7.8,-35.59,71.26,85,88,2.51,light rain,0.36,0.0
50,Ushuaia,AR,2020-04-19 06:36:41,-54.8,-68.3,44.6,75,40,16.11,scattered clouds,0.0,0.0
51,San Ignacio,BZ,2020-04-19 06:36:41,17.16,-89.07,75.99,91,67,3.0,broken clouds,0.0,0.0
52,Lavrentiya,RU,2020-04-19 06:36:42,65.58,-171.0,18.99,93,100,9.53,light snow,0.0,0.19
53,Flinders,AU,2020-04-19 06:33:12,-34.58,150.86,69.01,79,37,1.01,light rain,0.14,0.0
54,Mataura,NZ,2020-04-19 06:36:42,-46.19,168.86,48.99,77,56,5.99,light rain,0.4,0.0
55,Alofi,NU,2020-04-19 06:35:54,-19.06,-169.92,78.8,83,2,13.87,clear sky,0.0,0.0
56,Evanston,US,2020-04-19 06:36:42,42.04,-87.69,51.01,53,40,17.22,scattered clouds,0.0,0.0
57,Iqaluit,CA,2020-04-19 06:36:43,63.75,-68.51,-9.0,76,5,6.93,clear sky,0.0,0.0
58,Ilulissat,GL,2020-04-19 06:36:43,69.22,-51.1,21.2,62,99,21.92,light snow,0.0,0.0
59,Pisco,PE,2020-04-19 06:32:53,-13.7,-76.22,69.01,82,1,3.36,clear sky,0.0,0.0
60,Tessalit,ML,2020-04-19 06:36:43,20.2,1.01,73.67,30,95,6.69,overcast clouds,0.0,0.0
61,Atar,MR,2020-04-19 06:36:44,20.52,-13.05,61.29,60,0,9.78,clear sky,0.0,0.0
62,Upington,ZA,2020-04-19 06:36:44,-28.45,21.26,73.4,53,20,17.22,few clouds,0.0,0.0
63,Port Hueneme,US,2020-04-19 06:36:44,34.15,-119.2,59.0,82,90,6.93,overcast clouds,0.0,0.0
64,Qaqortoq,GL,2020-04-19 06:32:36,60.72,-46.03,26.6,73,100,2.24,light shower snow,0.0,0.0
65,Cape Town,ZA,2020-04-19 06:36:45,-33.93,18.42,62.01,93,97,5.82,fog,0.0,0.0
66,Muisne,EC,2020-04-19 06:33:00,0.6,-80.03,76.71,87,99,4.5,light rain,1.54,0.0
67,Lompoc,US,2020-04-19 06:33:13,34.64,-120.46,50.0,87,75,6.73,broken clouds,0.0,0.0
68,Mar Del Plata,AR,2020-04-19 06:36:45,-38.0,-57.56,63.0,82,79,16.11,broken clouds,0.0,0.0
69,Goderich,CA,2020-04-19 06:36:45,43.75,-81.72,46.0,66,75,22.59,broken clouds,0.0,0.0
70,Khakhea,BW,2020-04-19 06:36:45,-24.69,23.49,69.98,37,0,15.77,clear sky,0.0,0.0
71,Longyearbyen,SJ,2020-04-19 06:36:46,78.22,15.64,28.4,79,75,6.93,broken clouds,0.0,0.0
72,Olafsvik,IS,2020-04-19 06:36:46,64.89,-23.71,36.18,91,100,14.36,light rain,0.28,0.0
73,Sawara,JP,2020-04-19 06:36:46,35.88,140.5,68.0,59,20,20.8,few clouds,0.0,0.0
74,Gat,IL,2020-04-19 06:36:46,31.61,34.76,71.01,15,9,4.65,clear sky,0.0,0.0
75,Codrington,AU,2020-04-19 06:36:46,-38.27,141.97,62.8,59,94,7.07,overcast clouds,0.0,0.0
76,Haines Junction,CA,2020-04-19 06:36:47,60.75,-137.51,42.82,51,0,1.21,clear sky,0.0,0.0
77,Saskylakh,RU,2020-04-19 06:36:47,71.92,114.08,23.56,91,0,6.17,clear sky,0.0,0.0
78,Hofn,IS,2020-04-19 06:36:47,64.25,-15.21,45.39,88,97,12.37,light rain,0.16,0.0
79,Aklavik,CA,2020-04-19 06:36:47,68.22,-135.01,17.6,85,90,9.17,overcast clouds,0.0,0.0
80,Surt,LY,2020-04-19 06:36:47,31.21,16.59,62.55,59,1,11.59,clear sky,0.0,0.0
81,Kaniama,CD,2020-04-19 06:36:48,-7.57,24.18,67.35,76,100,1.41,moderate rain,7.28,0.0
82,Kaeo,NZ,2020-04-19 06:36:48,-35.1,173.78,64.99,86,100,6.04,overcast clouds,0.0,0.0
83,Emba,KZ,2020-04-19 06:36:48,48.83,58.14,57.83,49,98,4.83,overcast clouds,0.0,0.0
84,Pevek,RU,2020-04-19 06:33:55,69.7,170.31,3.31,94,74,4.61,broken clouds,0.0,0.0
85,Ambon,ID,2020-04-19 06:36:49,-3.7,128.18,89.6,66,40,10.29,shower rain,0.0,0.0
86,Port Elizabeth,ZA,2020-04-19 06:36:49,-33.92,25.57,60.8,93,0,3.36,clear sky,0.0,0.0
87,Sampit,ID,2020-04-19 06:36:49,-2.53,112.95,76.15,98,100,2.1,light rain,2.04,0.0
88,Uyuni,BO,2020-04-19 06:36:49,-20.46,-66.83,43.9,20,0,3.74,clear sky,0.0,0.0
89,Souillac,MU,2020-04-19 06:33:01,-20.52,57.52,82.4,58,20,11.41,few clouds,0.0,0.0
90,Yulara,AU,2020-04-19 06:36:50,-25.24,130.99,96.8,16,62,9.17,broken clouds,0.0,0.0
91,Tiarei,PF,2020-04-19 06:36:50,-17.53,-149.33,78.8,88,75,4.7,broken clouds,0.0,0.0
92,Hay River,CA,2020-04-19 06:36:50,60.82,-115.8,37.4,74,75,14.99,broken clouds,0.0,0.0
93,Vao,NC,2020-04-19 06:33:41,-22.67,167.48,77.31,74,1,10.71,clear sky,0.0,0.0
94,Yellowknife,CA,2020-04-19 06:36:51,62.46,-114.35,30.2,74,75,18.34,broken clouds,0.0,0.0
95,Cururupu,BR,2020-04-19 06:33:18,-1.83,-44.87,75.65,89,79,0.96,light rain,0.11,0.0
96,Bastia,FR,2020-04-19 06:36:52,42.67,9.33,62.01,87,75,2.24,broken clouds,0.0,0.0
97,Monrovia,LR,2020-04-19 06:31:58,6.3,-10.8,77.0,94,75,5.46,broken clouds,0.0,0.0
98,Shelburne,CA,2020-04-19 06:36:52,44.08,-80.2,46.4,69,1,13.87,clear sky,0.0,0.0
99,Boca Do Acre,BR,2020-04-19 06:36:52,-8.75,-67.4,67.93,75,9,2.53,clear sky,0.0,0.0
100,Bambous Virieux,MU,2020-04-19 06:36:53,-20.34,57.76,82.4,58,20,11.41,few clouds,0.0,0.0
101,Muros,ES,2020-04-19 06:36:53,42.78,-9.06,48.0,95,0,3.02,clear sky,0.0,0.0
102,Calama,CL,2020-04-19 06:34:49,-22.47,-68.93,50.0,25,0,14.99,clear sky,0.0,0.0
103,Nishihara,JP,2020-04-19 06:36:53,26.18,127.76,77.0,78,90,14.99,overcast clouds,0.0,0.0
104,Abu Zabad,SD,2020-04-19 06:36:53,12.35,29.25,83.55,14,97,17.2,overcast clouds,0.0,0.0
105,Hinesville,US,2020-04-19 06:36:54,31.85,-81.6,64.99,87,1,2.84,clear sky,0.0,0.0
106,Lodja,CD,2020-04-19 06:36:54,-3.48,23.43,71.96,84,100,1.63,light rain,1.18,0.0
107,Hilo,US,2020-04-19 06:34:34,19.73,-155.09,73.4,69,75,3.36,broken clouds,0.0,0.0
108,Taltal,CL,2020-04-19 06:36:54,-25.4,-70.48,60.12,74,2,1.07,clear sky,0.0,0.0
109,Puerto Baquerizo Moreno,EC,2020-04-19 06:36:55,-0.9,-89.6,78.13,83,12,8.75,few clouds,0.0,0.0
110,New Norfolk,AU,2020-04-19 06:36:55,-42.78,147.06,55.99,74,89,1.66,overcast clouds,0.0,0.0
111,Albany,US,2020-04-19 06:35:57,42.6,-73.97,30.0,89,0,5.35,clear sky,0.0,0.0
112,Luderitz,NA,2020-04-19 06:36:55,-26.65,15.16,59.0,87,8,3.36,clear sky,0.0,0.0
113,Portland,US,2020-04-19 06:34:45,45.52,-122.68,51.01,93,78,1.41,broken clouds,0.0,0.0
114,Bredasdorp,ZA,2020-04-19 06:36:55,-34.53,20.04,60.8,59,93,3.36,overcast clouds,0.0,0.0
115,Thompson,CA,2020-04-19 06:36:56,55.74,-97.86,-7.6,69,5,3.96,clear sky,0.0,0.0
116,Portobelo,PA,2020-04-19 06:36:56,9.55,-79.65,78.01,74,31,1.01,scattered clouds,0.0,0.0
117,Fortuna,US,2020-04-19 06:36:56,40.6,-124.16,51.01,100,90,4.7,overcast clouds,0.0,0.0
118,Tieling,CN,2020-04-19 06:36:56,42.29,123.84,63.64,38,100,16.8,light rain,0.18,0.0
119,Ponta Do Sol,PT,2020-04-19 06:32:45,32.67,-17.1,55.99,63,8,13.0,clear sky,0.0,0.0
120,Xinzhou,CN,2020-04-19 06:36:57,38.41,112.73,68.45,20,5,11.72,clear sky,0.0,0.0
121,Adrar,MR,2020-04-19 06:36:57,20.5,-10.07,69.62,25,12,17.22,few clouds,0.0,0.0
122,Qaanaaq,GL,2020-04-19 06:36:57,77.48,-69.36,14.74,84,100,18.52,overcast clouds,0.0,0.0
123,Mwinilunga,ZM,2020-04-19 06:36:57,-11.74,24.43,64.29,59,61,9.33,broken clouds,0.0,0.0
124,Cidreira,BR,2020-04-19 06:36:57,-30.18,-50.21,65.95,85,0,12.84,clear sky,0.0,0.0
125,Esperance,AU,2020-04-19 06:36:57,-33.87,121.9,71.6,53,75,21.92,broken clouds,0.0,0.0
126,Tazovskiy,RU,2020-04-19 06:36:58,67.47,78.7,37.0,98,100,21.61,light rain,0.35,0.0
127,Saint-Pierre,RE,2020-04-19 06:33:53,-21.34,55.48,82.4,65,20,23.04,few clouds,0.0,0.0
128,Brae,GB,2020-04-19 06:34:03,60.4,-1.35,42.8,93,0,5.82,clear sky,0.0,0.0
129,Galesong,ID,2020-04-19 06:36:58,-5.32,119.37,87.8,79,40,10.29,scattered clouds,0.0,0.0
130,Sao Domingos Do Maranhao,BR,2020-04-19 06:36:59,-5.58,-44.39,71.78,90,100,1.1,light rain,0.29,0.0
131,Cayenne,GF,2020-04-19 06:36:59,4.93,-52.33,77.0,100,71,3.36,light rain,1.44,0.0
132,Chuy,UY,2020-04-19 06:32:51,-33.7,-53.46,63.01,90,0,9.64,clear sky,0.0,0.0
133,Buala,SB,2020-04-19 06:32:49,-8.14,159.59,83.77,72,68,0.67,light rain,1.16,0.0
134,Khatanga,RU,2020-04-19 06:33:04,71.97,102.5,26.51,96,0,7.05,clear sky,0.0,0.0
135,Yarim,YE,2020-04-19 06:37:00,14.3,44.38,56.48,41,100,2.01,light rain,2.41,0.0
136,Kokopo,PG,2020-04-19 06:37:00,-4.35,152.26,82.78,77,73,5.97,light rain,2.31,0.0
137,Zhangye,CN,2020-04-19 06:37:00,38.93,100.45,61.81,16,23,15.55,few clouds,0.0,0.0
138,Misratah,LY,2020-04-19 06:37:01,32.38,15.09,63.5,71,14,11.41,few clouds,0.0,0.0
139,Petropavlovsk-Kamchatskiy,RU,2020-04-19 06:37:01,53.05,158.65,33.8,34,15,29.08,few clouds,0.0,0.0
140,Magadan,RU,2020-04-19 06:37:01,59.57,150.8,16.14,83,64,8.39,broken clouds,0.0,0.0
141,Bonavista,CA,2020-04-19 06:37:01,48.65,-53.11,28.67,95,59,6.76,broken clouds,0.0,0.0
142,Kirakira,SB,2020-04-19 06:37:02,-10.45,161.92,82.29,76,99,2.95,light rain,2.71,0.0
143,Mozarlandia,BR,2020-04-19 06:37:02,-14.74,-50.57,69.82,84,67,3.62,broken clouds,0.0,0.0
144,Banyo,CM,2020-04-19 06:37:02,6.75,11.82,69.8,61,95,1.41,light rain,0.19,0.0
145,Torbay,CA,2020-04-19 06:33:01,47.67,-52.73,30.0,85,75,6.93,broken clouds,0.0,0.0
146,Charagua,BO,2020-04-19 06:37:03,-19.8,-63.22,57.07,44,0,3.29,clear sky,0.0,0.0
147,Port Augusta,AU,2020-04-19 06:37:03,-32.5,137.77,75.2,29,90,18.34,overcast clouds,0.0,0.0
148,Mikropolis,GR,2020-04-19 06:37:03,41.19,23.82,60.01,83,69,0.38,broken clouds,0.0,0.0
149,Praia,CV,2020-04-19 06:33:52,14.92,-23.51,71.6,56,75,14.99,broken clouds,0.0,0.0
150,San Sebastian,ES,2020-04-19 06:32:31,43.31,-1.98,57.99,100,75,2.24,moderate rain,0.0,0.0
151,Concordia,AR,2020-04-19 06:37:04,-31.39,-58.02,57.0,89,0,5.46,clear sky,0.0,0.0
152,Hit,IQ,2020-04-19 06:37:04,33.64,42.83,79.84,26,0,5.1,clear sky,0.0,0.0
153,Kangaatsiaq,GL,2020-04-19 06:33:59,68.31,-53.46,25.03,86,67,29.04,broken clouds,0.0,0.0
154,San Patricio,MX,2020-04-19 06:33:39,19.22,-104.7,74.43,75,44,8.23,scattered clouds,0.0,0.0
155,Manggar,ID,2020-04-19 06:37:05,-2.88,108.27,85.08,75,95,8.97,moderate rain,3.02,0.0
156,Vestmanna,FO,2020-04-19 06:37:05,62.16,-7.17,42.8,87,0,8.05,clear sky,0.0,0.0
157,Richards Bay,ZA,2020-04-19 06:32:10,-28.78,32.04,72.75,75,28,9.1,scattered clouds,0.0,0.0
158,Klaksvik,FO,2020-04-19 06:37:05,62.23,-6.59,42.8,87,0,8.05,clear sky,0.0,0.0
159,Vardo,NO,2020-04-19 06:33:54,70.37,31.11,35.83,89,100,9.22,overcast clouds,0.0,0.0
160,San Policarpo,PH,2020-04-19 06:37:06,12.18,125.51,83.41,74,20,11.23,few clouds,0.0,0.0
161,Tiksi,RU,2020-04-19 06:37:06,71.69,128.87,17.6,89,70,4.76,broken clouds,0.0,0.0
162,Haverfordwest,GB,2020-04-19 06:36:04,51.8,-4.97,51.01,87,51,8.05,broken clouds,0.0,0.0
163,Paamiut,GL,2020-04-19 06:37:06,61.99,-49.67,23.9,92,95,11.79,light snow,0.0,0.11
164,Guaruja,BR,2020-04-19 06:37:06,-23.99,-46.26,70.0,82,20,4.7,light rain,0.0,0.0
165,Lodwar,KE,2020-04-19 06:37:07,3.12,35.6,77.97,62,100,19.04,moderate rain,5.18,0.0
166,Cabo San Lucas,MX,2020-04-19 06:37:07,22.89,-109.91,66.0,85,3,11.9,clear sky,0.0,0.0
167,Sur,OM,2020-04-19 06:37:07,22.57,59.53,92.3,29,54,8.16,broken clouds,0.0,0.0
168,Omboue,GA,2020-04-19 06:37:07,-1.57,9.26,79.09,86,26,0.83,scattered clouds,0.0,0.0
169,Sasayama,JP,2020-04-19 06:37:08,35.07,135.22,62.6,55,75,11.41,broken clouds,0.0,0.0
170,Saint-Philippe,RE,2020-04-19 06:37:08,-21.36,55.77,82.4,65,20,23.04,few clouds,0.0,0.0
171,Sambava,MG,2020-04-19 06:37:08,-14.27,50.17,82.42,61,59,11.77,broken clouds,0.0,0.0
172,Atherton,GB,2020-04-19 06:37:08,53.52,-2.49,46.99,77,40,8.01,scattered clouds,0.0,0.0
173,Yunyang,CN,2020-04-19 06:37:08,33.45,112.71,70.57,39,1,3.36,clear sky,0.0,0.0
174,Tuatapere,NZ,2020-04-19 06:37:09,-46.13,167.68,48.99,77,67,5.99,light rain,0.23,0.0
175,Mokhsogollokh,RU,2020-04-19 06:37:09,61.47,128.92,21.72,85,100,5.68,overcast clouds,0.0,0.0
176,Constitucion,CL,2020-04-19 06:37:09,-35.33,-72.42,56.59,83,10,12.01,clear sky,0.0,0.0
177,Laela,TZ,2020-04-19 06:37:09,-8.57,32.05,62.26,59,86,7.65,overcast clouds,0.0,0.0
178,Vargashi,RU,2020-04-19 06:37:09,55.36,65.85,51.22,51,92,11.07,overcast clouds,0.0,0.0
179,Hami,CN,2020-04-19 06:37:10,42.8,93.45,70.83,15,75,7.11,broken clouds,0.0,0.0
180,San Felipe,VE,2020-04-19 06:37:10,10.34,-68.74,71.46,80,66,1.7,broken clouds,0.0,0.0
181,Grindavik,IS,2020-04-19 06:37:10,63.84,-22.43,44.01,100,90,6.93,light rain,0.0,0.0
182,Tobe,JP,2020-04-19 06:37:10,33.74,132.79,64.0,59,75,6.93,broken clouds,0.0,0.0
183,Berlevag,NO,2020-04-19 06:37:11,70.86,29.09,38.43,91,100,6.6,light rain,0.31,0.0
184,Gamba,GA,2020-04-19 06:37:11,-2.65,10.0,78.42,86,81,1.79,broken clouds,0.0,0.0
185,Anchorage,US,2020-04-19 06:35:38,61.22,-149.9,44.6,81,1,3.36,clear sky,0.0,0.0
186,Marystown,CA,2020-04-19 06:37:11,47.17,-55.15,31.3,95,100,13.42,overcast clouds,0.0,0.0
187,Gizo,SB,2020-04-19 06:37:11,-8.1,156.84,83.86,72,22,2.48,light rain,1.54,0.0
188,Cherskiy,RU,2020-04-19 06:37:12,68.75,161.3,8.28,93,7,13.47,clear sky,0.0,0.0
189,Dikson,RU,2020-04-19 06:33:03,73.51,80.55,35.2,93,100,19.75,light rain,0.84,0.0
190,Gasa,PS,2020-04-19 06:37:12,31.5,34.47,71.01,15,11,8.32,few clouds,0.0,0.0
191,Sechura,PE,2020-04-19 06:37:12,-5.56,-80.82,72.54,79,3,11.39,clear sky,0.0,0.0
192,Jequitinhonha,BR,2020-04-19 06:37:12,-16.43,-41.0,69.31,81,94,2.8,overcast clouds,0.0,0.0
193,Puerto Quijarro,BO,2020-04-19 06:37:13,-17.78,-57.77,68.2,73,23,2.44,few clouds,0.0,0.0
194,Axim,GH,2020-04-19 06:37:13,4.87,-2.24,80.24,82,66,6.73,light rain,2.22,0.0
195,Clyde River,CA,2020-04-19 06:34:00,70.47,-68.59,-4.0,91,1,8.05,clear sky,0.0,0.0
196,Jhawarian,PK,2020-04-19 06:37:13,32.36,72.62,84.79,29,7,5.21,clear sky,0.0,0.0
197,Yaan,NG,2020-04-19 06:37:13,7.38,8.57,78.28,76,95,7.9,overcast clouds,0.0,0.0
198,Orbetello,IT,2020-04-19 06:37:14,42.44,11.22,59.0,93,90,3.74,fog,0.0,0.0
199,Cairns,AU,2020-04-19 06:37:14,-16.92,145.77,87.01,70,40,6.93,scattered clouds,0.0,0.0
200,Severo-Kurilsk,RU,2020-04-19 06:37:14,50.68,156.12,31.59,93,71,18.95,broken clouds,0.0,0.0
201,Katobu,ID,2020-04-19 06:37:14,-4.94,122.53,89.35,54,84,5.03,light rain,0.77,0.0
202,Belmonte,BR,2020-04-19 06:37:14,-15.86,-38.88,73.4,83,75,5.82,broken clouds,0.0,0.0
203,Mayumba,GA,2020-04-19 06:37:15,-3.43,10.66,78.96,86,86,3.47,light rain,0.11,0.0
204,Kodinsk,RU,2020-04-19 06:37:15,58.69,99.18,40.62,52,0,5.23,clear sky,0.0,0.0
205,Talnakh,RU,2020-04-19 06:37:15,69.49,88.4,37.4,74,100,40.26,overcast clouds,0.0,0.0
206,Egypt Lake-Leto,US,2020-04-19 06:35:10,28.02,-82.51,75.2,73,40,3.36,scattered clouds,0.0,0.0
207,Teguise,ES,2020-04-19 06:37:15,29.06,-13.56,62.6,72,20,6.93,few clouds,0.0,0.0
208,La Ronge,CA,2020-04-19 06:32:58,55.1,-105.28,30.2,63,90,3.36,light snow,0.0,0.0
209,Rundu,NA,2020-04-19 06:37:16,-17.93,19.77,62.6,88,100,3.36,overcast clouds,0.0,0.0
210,Kavieng,PG,2020-04-19 06:37:16,-2.57,150.8,84.13,70,84,4.18,light rain,0.94,0.0
211,Adeje,ES,2020-04-19 06:37:16,28.12,-16.73,60.8,72,20,5.82,few clouds,0.0,0.0
212,Xiaoyi,CN,2020-04-19 06:37:17,34.62,109.7,75.15,24,6,3.78,clear sky,0.0,0.0
213,Asyut,EG,2020-04-19 06:37:17,27.18,31.18,60.8,67,0,14.99,clear sky,0.0,0.0
214,Geraldton,AU,2020-04-19 06:37:17,-28.77,114.6,78.8,47,94,18.34,overcast clouds,0.0,0.0
215,Bundaberg,AU,2020-04-19 06:32:17,-24.85,152.35,78.01,78,40,8.05,scattered clouds,0.0,0.0
216,Brownsville,US,2020-04-19 06:37:17,25.9,-97.5,77.0,88,75,17.94,broken clouds,0.0,0.0
217,Coquimbo,CL,2020-04-19 06:37:18,-29.95,-71.34,53.6,100,90,3.36,mist,0.0,0.0
218,Mount Isa,AU,2020-04-19 06:37:18,-20.73,139.5,93.2,15,44,10.29,scattered clouds,0.0,0.0
219,Maragogi,BR,2020-04-19 06:37:18,-9.01,-35.22,79.43,78,99,2.3,light rain,1.0,0.0
220,Kuching,MY,2020-04-19 06:37:18,1.55,110.33,87.8,70,40,5.82,scattered clouds,0.0,0.0
221,Mahebourg,MU,2020-04-19 06:37:18,-20.41,57.7,82.4,58,20,11.41,few clouds,0.0,0.0
222,Conceicao Da Barra,BR,2020-04-19 06:37:19,-18.59,-39.73,72.9,81,10,11.81,clear sky,0.0,0.0
223,Rafraf,TN,2020-04-19 06:37:19,37.19,10.18,64.4,93,20,8.05,few clouds,0.0,0.0
224,Katsuura,JP,2020-04-19 06:37:19,35.13,140.3,68.0,55,0,11.99,clear sky,0.0,0.0
225,Ahipara,NZ,2020-04-19 06:33:04,-35.17,173.17,65.05,81,100,6.8,overcast clouds,0.0,0.0
226,Abatskoye,RU,2020-04-19 06:37:20,56.29,70.46,54.75,68,91,10.4,light rain,0.42,0.0
227,Sao Gabriel Da Cachoeira,BR,2020-04-19 06:37:20,-0.13,-67.09,72.16,92,99,0.6,light rain,0.38,0.0
228,Hervey Bay,AU,2020-04-19 06:37:20,-25.3,152.85,79.0,78,40,8.05,scattered clouds,0.0,0.0
229,Ribeira Grande,PT,2020-04-19 06:37:20,38.52,-28.7,60.8,72,40,20.8,scattered clouds,0.0,0.0
230,Manzil Salim,TN,2020-04-19 06:37:20,35.86,8.48,64.4,31,75,6.93,broken clouds,0.0,0.0
231,Burnie,AU,2020-04-19 06:37:21,-41.07,145.92,55.99,8,90,1.01,overcast clouds,0.0,0.0
232,Bandarbeyla,SO,2020-04-19 06:33:54,9.49,50.81,82.99,60,72,3.85,broken clouds,0.0,0.0
233,Otacilio Costa,BR,2020-04-19 06:37:21,-27.48,-50.12,54.48,76,56,3.44,broken clouds,0.0,0.0
234,Masuguru,TZ,2020-04-19 06:37:22,-11.37,38.42,74.98,84,95,7.2,overcast clouds,0.0,0.0
235,Angoche,MZ,2020-04-19 06:37:22,-16.23,39.91,80.38,81,14,10.16,light rain,0.75,0.0
236,Hue,VN,2020-04-19 06:37:22,16.47,107.6,91.4,63,20,8.05,few clouds,0.0,0.0
237,Walsrode,DE,2020-04-19 06:37:22,52.87,9.6,45.0,59,0,8.99,clear sky,0.0,0.0
238,Kruisfontein,ZA,2020-04-19 06:33:15,-34.0,24.73,70.2,32,29,9.4,scattered clouds,0.0,0.0
239,Trofors,NO,2020-04-19 06:37:23,65.53,13.41,42.8,93,90,5.82,light intensity shower rain,0.0,0.0
240,Saint George,US,2020-04-19 06:33:34,37.1,-113.58,57.0,54,1,4.7,clear sky,0.0,0.0
241,Havre-Saint-Pierre,CA,2020-04-19 06:37:23,50.23,-63.6,28.4,68,1,2.24,clear sky,0.0,0.0
242,Linqiong,CN,2020-04-19 06:35:53,30.42,103.46,72.0,72,75,2.48,broken clouds,0.0,0.0
243,Malyye Derbety,RU,2020-04-19 06:37:23,47.95,44.68,52.3,63,91,4.12,overcast clouds,0.0,0.0
244,Kaputa,ZM,2020-04-19 06:37:24,-8.47,29.66,69.39,65,99,6.62,overcast clouds,0.0,0.0
245,Salalah,OM,2020-04-19 06:34:40,17.02,54.09,84.2,70,75,9.17,broken clouds,0.0,0.0
246,Sorland,NO,2020-04-19 06:37:24,67.67,12.69,41.04,87,99,8.72,overcast clouds,0.0,0.0
247,Lagoa,PT,2020-04-19 06:33:23,39.05,-27.98,60.19,64,59,21.9,light rain,0.12,0.0
248,Northam,GB,2020-04-19 06:37:25,51.03,-4.22,52.0,98,65,1.01,broken clouds,0.0,0.0
249,Antofagasta,CL,2020-04-19 06:37:25,-23.65,-70.4,59.0,87,27,3.36,scattered clouds,0.0,0.0
250,Aitape,PG,2020-04-19 06:37:25,-3.14,142.35,87.31,63,4,4.97,light rain,0.25,0.0
251,Hokitika,NZ,2020-04-19 06:34:58,-42.72,170.97,53.64,73,66,13.49,light rain,2.93,0.0
252,Rijeka,HR,2020-04-19 06:37:26,45.34,14.41,59.0,62,86,0.18,overcast clouds,0.0,0.0
253,Bereda,ES,2020-04-19 06:37:26,43.27,-7.54,50.0,1,80,1.01,broken clouds,0.0,0.0
254,Banihal,IN,2020-04-19 06:37:26,33.42,75.2,62.4,27,46,3.87,light rain,0.82,0.0
255,Chiredzi,ZW,2020-04-19 06:37:26,-21.05,31.67,69.22,71,51,7.56,broken clouds,0.0,0.0
256,Jardim,BR,2020-04-19 06:35:51,-21.48,-56.14,63.09,72,28,4.25,scattered clouds,0.0,0.0
257,Jennings,US,2020-04-19 06:37:27,38.72,-90.26,52.0,70,90,9.17,overcast clouds,0.0,0.0
258,Toora-Khem,RU,2020-04-19 06:37:27,52.47,96.11,51.57,28,0,3.85,clear sky,0.0,0.0
259,Butaritari,KI,2020-04-19 06:37:27,3.07,172.79,83.55,80,99,16.55,light rain,0.46,0.0
260,Sitka,US,2020-04-19 06:37:28,57.05,-135.33,44.6,93,20,11.41,few clouds,0.0,0.0
261,Shenjiamen,CN,2020-04-19 06:37:28,29.96,122.3,60.48,91,100,18.23,light rain,0.47,0.0
262,Matagami,CA,2020-04-19 06:32:33,49.75,-77.63,37.4,69,90,8.05,light rain,0.0,0.0
263,Rio Gallegos,AR,2020-04-19 06:34:04,-51.62,-69.22,41.0,62,91,12.75,overcast clouds,0.0,0.0
264,Murmashi,RU,2020-04-19 06:37:29,68.82,32.81,35.6,80,75,6.71,broken clouds,0.0,0.0
265,Mount Gambier,AU,2020-04-19 06:37:29,-37.83,140.77,62.6,59,75,12.75,broken clouds,0.0,0.0
266,Beatrice,US,2020-04-19 06:37:29,40.27,-96.75,48.2,70,1,11.41,clear sky,0.0,0.0
267,East London,ZA,2020-04-19 06:37:29,-33.02,27.91,69.8,64,0,11.41,clear sky,0.0,0.0
268,Leticia,CO,2020-04-19 06:33:28,-4.22,-69.94,77.0,100,40,1.28,scattered clouds,0.0,0.0
269,Myrtle Beach,US,2020-04-19 06:37:29,33.69,-78.89,64.4,48,1,8.05,clear sky,0.0,0.0
270,Bonthe,SL,2020-04-19 06:37:30,7.53,-12.51,78.51,80,100,4.12,overcast clouds,0.0,0.0
271,Semey,KZ,2020-04-19 06:37:30,50.41,80.23,68.0,26,0,4.47,clear sky,0.0,0.0
272,Bengkulu,ID,2020-04-19 06:37:30,-3.8,102.27,88.32,58,81,4.29,broken clouds,0.0,0.0
273,Wonthaggi,AU,2020-04-19 06:37:30,-38.6,145.59,61.0,64,61,4.36,broken clouds,0.0,0.0
274,Aksarka,RU,2020-04-19 06:32:48,66.56,67.8,33.66,98,100,3.98,light rain,0.98,0.0
275,Chokurdakh,RU,2020-04-19 06:37:31,70.63,147.92,8.62,93,100,12.53,light snow,0.0,0.11
276,The Valley,AI,2020-04-19 06:37:31,18.22,-63.06,79.0,78,20,9.17,few clouds,0.0,0.0
277,Muriwai Beach,NZ,2020-04-19 06:36:19,-36.82,174.45,62.01,95,100,8.12,light rain,0.64,0.0
278,Sukhobezvodnoye,RU,2020-04-19 06:37:32,57.05,44.89,41.81,61,40,6.38,scattered clouds,0.0,0.0
279,Aksu,CN,2020-04-19 06:37:32,41.12,80.26,65.93,24,100,5.66,overcast clouds,0.0,0.0
280,Ormara,PK,2020-04-19 06:37:32,25.21,64.64,84.76,49,49,9.86,scattered clouds,0.0,0.0
281,Saint-Joseph,RE,2020-04-19 06:37:32,-21.37,55.62,82.4,65,20,23.04,few clouds,0.0,0.0
282,Saldanha,ZA,2020-04-19 06:37:32,-33.01,17.94,57.2,93,100,11.41,overcast clouds,0.0,0.0
283,Muhos,FI,2020-04-19 06:37:33,64.81,25.99,35.6,74,40,6.93,scattered clouds,0.0,0.0
284,Bay Roberts,CA,2020-04-19 06:37:33,47.6,-53.26,28.99,44,73,4.27,broken clouds,0.0,0.0
285,Atambua,ID,2020-04-19 06:37:33,-9.11,124.89,81.59,61,30,1.88,scattered clouds,0.0,0.0
286,Esmeraldas,BR,2020-04-19 06:33:22,-19.76,-44.31,66.2,88,99,4.7,overcast clouds,0.0,0.0
287,Bilma,NE,2020-04-19 06:37:34,18.69,12.92,82.45,13,20,5.37,few clouds,0.0,0.0
288,Fairbanks,US,2020-04-19 06:37:34,64.84,-147.72,42.8,93,90,4.7,overcast clouds,0.0,0.0
289,Vostok,RU,2020-04-19 06:33:23,46.49,135.88,55.56,30,41,9.13,scattered clouds,0.0,0.0
290,Usinsk,RU,2020-04-19 06:37:34,65.99,57.53,30.94,99,100,3.74,overcast clouds,0.0,0.0
291,Dowa,MW,2020-04-19 06:37:34,-13.65,33.94,64.4,93,75,11.41,broken clouds,0.0,0.0
292,Pasighat,IN,2020-04-19 06:37:35,28.07,95.33,74.16,66,97,1.07,light rain,1.5,0.0
293,Beba,CU,2020-04-19 06:37:35,22.44,-79.73,73.4,100,5,2.24,clear sky,0.0,0.0
294,Kisanga,TZ,2020-04-19 06:37:35,-7.44,37.7,78.4,80,82,4.36,light rain,0.42,0.0
295,Touros,BR,2020-04-19 06:37:35,-5.2,-35.46,77.0,100,75,4.7,broken clouds,0.0,0.0
296,Bani,DO,2020-04-19 06:37:35,18.28,-70.33,74.75,77,0,7.43,clear sky,0.0,0.0
297,Bronnoysund,NO,2020-04-19 06:37:36,65.46,12.2,42.8,93,90,5.82,light intensity shower rain,0.0,0.0
298,Melville,US,2020-04-19 06:34:46,40.79,-73.42,41.0,60,1,6.93,clear sky,0.0,0.0
299,Brigantine,US,2020-04-19 06:37:36,39.41,-74.36,41.0,69,1,3.36,clear sky,0.0,0.0
300,Kloulklubed,PW,2020-04-19 06:34:35,7.04,134.26,86.0,74,90,11.41,overcast clouds,0.0,0.0
301,Camacha,PT,2020-04-19 06:37:36,33.08,-16.33,60.8,77,40,12.75,scattered clouds,0.0,0.0
302,Tarnos,FR,2020-04-19 06:37:37,43.54,-1.46,55.99,100,90,2.24,overcast clouds,0.0,0.0
303,Dolores,AR,2020-04-19 06:37:37,-36.31,-57.68,58.3,77,1,9.84,clear sky,0.0,0.0
304,Sarkand,KZ,2020-04-19 06:37:37,45.41,79.92,62.8,24,0,5.35,clear sky,0.0,0.0
305,Varzea Grande,BR,2020-04-19 06:37:37,-15.65,-56.13,73.4,94,75,2.24,broken clouds,0.0,0.0
306,Kattivakkam,IN,2020-04-19 06:37:38,13.22,80.32,93.2,56,40,9.17,scattered clouds,0.0,0.0
307,Kutum,SD,2020-04-19 06:37:38,14.2,24.67,75.88,15,43,7.4,scattered clouds,0.0,0.0
308,Isangel,VU,2020-04-19 06:37:38,-19.55,169.27,77.0,88,75,5.82,broken clouds,0.0,0.0
309,Karratha,AU,2020-04-19 06:37:38,-20.74,116.85,92.75,36,42,12.93,scattered clouds,0.0,0.0
310,Meulaboh,ID,2020-04-19 06:34:19,4.14,96.13,87.15,64,48,4.27,light rain,0.61,0.0
311,Rawson,AR,2020-04-19 06:37:39,-43.3,-65.1,64.49,39,97,21.7,overcast clouds,0.0,0.0
312,Itarema,BR,2020-04-19 06:37:39,-2.92,-39.92,75.7,87,4,4.27,clear sky,0.0,0.0
313,Birao,CF,2020-04-19 06:37:39,10.28,22.79,82.06,12,100,2.66,overcast clouds,0.0,0.0
314,Nome,US,2020-04-19 06:33:20,64.5,-165.41,35.6,93,90,4.7,light rain,0.0,0.0
315,Jinxiang,CN,2020-04-19 06:37:40,22.86,115.7,82.0,72,14,5.99,few clouds,0.0,0.0
316,Plettenberg Bay,ZA,2020-04-19 06:34:16,-34.05,23.37,76.91,31,56,10.65,broken clouds,0.0,0.0
317,Chapais,CA,2020-04-19 06:37:40,49.78,-74.85,35.6,59,90,14.99,overcast clouds,0.0,0.0
318,Marawi,PH,2020-04-19 06:33:06,8.0,124.29,76.68,65,98,3.22,light rain,2.85,0.0
319,Turinsk,RU,2020-04-19 06:33:03,58.05,63.7,47.7,52,0,10.78,clear sky,0.0,0.0
320,Veinticinco De Mayo,AR,2020-04-19 06:37:41,-35.43,-60.17,58.5,71,3,10.31,clear sky,0.0,0.0
321,Kamenka,RU,2020-04-19 06:32:51,51.32,42.77,46.99,49,6,7.0,clear sky,0.0,0.0
322,Riyadh,SA,2020-04-19 06:37:01,24.69,46.72,73.4,56,90,8.05,dust,0.0,0.0
323,Atlantic City,US,2020-04-19 06:37:41,39.36,-74.42,41.0,69,1,3.36,clear sky,0.0,0.0
324,Ferme-Neuve,CA,2020-04-19 06:37:42,46.7,-75.45,33.1,83,86,7.96,overcast clouds,0.0,0.0
325,Ixtapa,MX,2020-04-19 06:37:42,20.7,-105.2,73.4,83,75,4.7,broken clouds,0.0,0.0
326,Upernavik,GL,2020-04-19 06:33:15,72.79,-56.15,20.17,93,98,14.92,overcast clouds,0.0,0.0
327,Gao,ML,2020-04-19 06:37:42,16.64,1.64,81.73,13,27,8.9,scattered clouds,0.0,0.0
328,Denpasar,ID,2020-04-19 06:35:06,-8.65,115.22,89.6,70,40,8.05,scattered clouds,0.0,0.0
329,Obihiro,JP,2020-04-19 06:37:43,42.92,143.2,51.8,37,40,12.75,scattered clouds,0.0,0.0
330,Anadyr,RU,2020-04-19 06:37:43,64.75,177.48,15.8,85,90,13.42,light snow,0.0,0.0
331,Leningradskiy,RU,2020-04-19 06:37:43,69.38,178.42,4.48,89,20,7.56,few clouds,0.0,0.0
332,Labuhan,ID,2020-04-19 06:37:44,-6.88,112.21,89.38,61,65,1.5,light rain,0.15,0.0
333,Nelson Bay,AU,2020-04-19 06:33:48,-32.72,152.15,70.0,60,3,9.17,light rain,0.65,0.0
334,Celestun,MX,2020-04-19 06:37:44,20.87,-90.4,83.17,66,0,17.02,clear sky,0.0,0.0
335,Hasaki,JP,2020-04-19 06:37:44,35.73,140.83,68.0,59,20,20.8,few clouds,0.0,0.0
336,Narsaq,GL,2020-04-19 06:37:44,60.92,-46.05,26.6,73,100,2.24,light shower snow,0.0,0.0
337,Mahuva,IN,2020-04-19 06:37:45,21.09,71.76,93.56,34,50,4.76,scattered clouds,0.0,0.0
338,Mount Darwin,ZW,2020-04-19 06:37:45,-16.77,31.58,68.25,56,22,5.82,few clouds,0.0,0.0
339,Hualmay,PE,2020-04-19 06:37:45,-11.1,-77.61,69.1,82,17,4.85,few clouds,0.0,0.0
340,Laksham,BD,2020-04-19 06:37:45,23.25,91.14,93.81,47,9,10.18,clear sky,0.0,0.0
341,Bathsheba,BB,2020-04-19 06:37:45,13.22,-59.52,80.6,69,40,19.46,scattered clouds,0.0,0.0
342,Praia Da Vitoria,PT,2020-04-19 06:37:46,38.73,-27.07,62.6,77,20,22.06,few clouds,0.0,0.0
343,Viedma,AR,2020-04-19 06:37:46,-40.81,-63.0,68.85,52,63,9.44,broken clouds,0.0,0.0
344,Turukhansk,RU,2020-04-19 06:37:46,65.82,87.98,46.09,61,100,20.22,overcast clouds,0.0,0.0
345,Maumere,ID,2020-04-19 06:37:46,-8.62,122.21,85.46,66,1,5.01,clear sky,0.0,0.0
346,Bull Savanna,JM,2020-04-19 06:37:47,17.89,-77.59,73.76,80,10,5.08,clear sky,0.0,0.0
347,North Platte,US,2020-04-19 06:33:29,41.12,-100.77,46.99,61,1,8.05,clear sky,0.0,0.0
348,Vangaindrano,MG,2020-04-19 06:37:47,-23.35,47.6,76.73,84,32,6.4,light rain,1.25,0.0
349,Te Anau,NZ,2020-04-19 06:37:47,-45.42,167.72,45.41,67,48,9.01,light rain,0.69,0.0
350,Jawhar,SO,2020-04-19 06:37:48,2.78,45.5,87.84,53,97,6.44,light rain,0.5,0.0
351,Peterhead,GB,2020-04-19 06:37:48,57.51,-1.8,42.01,93,75,2.24,broken clouds,0.0,0.0
352,Neiafu,TO,2020-04-19 06:33:48,-18.65,-173.98,82.4,83,40,9.17,scattered clouds,0.0,0.0
353,Quesnel,CA,2020-04-19 06:37:48,53.0,-122.5,37.4,69,20,2.19,few clouds,0.0,0.0
354,Laguna,US,2020-04-19 06:33:47,38.42,-121.42,55.0,71,1,8.05,clear sky,0.0,0.0
355,Lingao,CN,2020-04-19 06:37:48,19.91,109.69,83.88,60,26,6.96,scattered clouds,0.0,0.0
356,Eravur,LK,2020-04-19 06:37:49,7.77,81.61,90.0,58,29,9.28,scattered clouds,0.0,0.0
357,Placerville,US,2020-04-19 06:37:49,38.73,-120.8,48.99,93,1,3.36,clear sky,0.0,0.0
358,Hambantota,LK,2020-04-19 06:37:49,6.12,81.12,86.76,71,12,11.45,light rain,0.14,0.0
359,Ende,ID,2020-04-19 06:37:49,-8.84,121.66,83.7,70,6,3.4,clear sky,0.0,0.0
360,Pandamatenga,BW,2020-04-19 06:37:49,-18.53,25.63,67.93,51,88,11.95,overcast clouds,0.0,0.0
361,Ulaangom,MN,2020-04-19 06:37:50,49.98,92.07,42.44,41,0,4.83,clear sky,0.0,0.0
362,Ouallam,NE,2020-04-19 06:37:50,14.32,2.09,82.72,24,2,10.49,clear sky,0.0,0.0
363,Raudeberg,NO,2020-04-19 06:37:50,61.99,5.14,48.0,75,4,3.36,clear sky,0.0,0.0
364,Verkhnevilyuysk,RU,2020-04-19 06:37:50,63.45,120.32,22.84,87,97,7.16,overcast clouds,0.0,0.0
365,Diplo,PK,2020-04-19 06:37:50,24.47,69.58,97.14,23,61,16.46,broken clouds,0.0,0.0
366,Arusha,TZ,2020-04-19 06:37:51,-3.37,36.68,68.0,100,90,2.86,moderate rain,0.0,0.0
367,Kahului,US,2020-04-19 06:35:26,20.89,-156.47,73.4,73,1,13.87,clear sky,0.0,0.0
368,Ostrovnoy,RU,2020-04-19 06:32:51,68.05,39.51,32.65,96,100,17.11,light snow,0.0,1.29
369,Kigoma,TZ,2020-04-19 06:37:51,-4.88,29.63,68.0,100,90,3.22,moderate rain,0.0,0.0
370,Catuday,PH,2020-04-19 06:37:51,16.29,119.81,85.14,67,67,12.24,broken clouds,0.0,0.0
371,Labrea,BR,2020-04-19 06:37:52,-7.26,-64.8,72.64,92,89,1.63,light rain,0.28,0.0
372,Porto Novo,BJ,2020-04-19 06:37:52,6.5,2.6,84.2,83,40,10.29,scattered clouds,0.0,0.0
373,Maneadero,MX,2020-04-19 06:35:14,31.72,-116.57,60.01,79,45,5.99,scattered clouds,0.0,0.0
374,Zhaotong,CN,2020-04-19 06:35:13,27.32,103.72,62.78,36,95,3.49,overcast clouds,0.0,0.0
375,Guerrero Negro,MX,2020-04-19 06:37:52,27.98,-114.06,60.12,77,2,17.56,clear sky,0.0,0.0
376,Mayo,US,2020-04-19 06:37:53,38.89,-76.51,39.99,69,1,4.94,clear sky,0.0,0.0
377,Port Blair,IN,2020-04-19 06:37:13,11.67,92.75,84.69,75,14,9.62,light rain,0.24,0.0
378,Pontes E Lacerda,BR,2020-04-19 06:37:53,-15.23,-59.34,68.34,85,59,1.59,broken clouds,0.0,0.0
379,Korcula,HR,2020-04-19 06:37:53,42.96,17.14,60.08,68,100,5.03,overcast clouds,0.0,0.0
380,Vestmannaeyjar,IS,2020-04-19 06:33:44,63.44,-20.27,45.88,95,100,20.33,light rain,0.55,0.0
381,Saint-Augustin,CA,2020-04-19 06:37:54,51.23,-58.65,22.73,94,4,8.32,clear sky,0.0,0.0
382,Indianola,US,2020-04-19 06:37:21,41.36,-93.56,50.0,61,75,8.05,broken clouds,0.0,0.0
383,Grand Gaube,MU,2020-04-19 06:37:54,-20.01,57.66,82.4,58,20,11.41,few clouds,0.0,0.0
384,Rocha,UY,2020-04-19 06:37:54,-34.48,-54.33,57.78,92,0,7.65,clear sky,0.0,0.0
385,Wagar,SD,2020-04-19 06:37:54,16.15,36.2,84.4,20,8,9.82,clear sky,0.0,0.0
386,Susaki,JP,2020-04-19 06:37:55,33.37,133.28,64.4,52,75,6.93,broken clouds,0.0,0.0
387,Havoysund,NO,2020-04-19 06:37:55,71.0,24.66,37.4,93,93,26.4,light rain,0.15,0.0
388,Ajdabiya,LY,2020-04-19 06:37:55,30.76,20.23,62.94,59,23,8.01,few clouds,0.0,0.0
389,Lucapa,AO,2020-04-19 06:37:55,-8.42,20.74,65.88,74,98,2.64,light rain,0.19,0.0
390,Bjornevatn,NO,2020-04-19 06:37:55,69.67,29.98,33.8,86,100,8.05,light rain,0.11,0.0
391,Alice Springs,AU,2020-04-19 06:37:56,-23.7,133.88,95.0,16,36,4.7,scattered clouds,0.0,0.0
392,Monster,NL,2020-04-19 06:37:56,52.03,4.17,48.99,70,91,3.0,overcast clouds,0.0,0.0
393,Rabo De Peixe,PT,2020-04-19 06:37:56,37.8,-25.58,60.8,93,75,8.05,broken clouds,0.0,0.0
394,Harper,LR,2020-04-19 06:37:56,4.38,-7.72,79.56,84,100,6.64,light rain,0.29,0.0
395,Ancud,CL,2020-04-19 06:37:56,-41.87,-73.82,50.0,81,40,8.05,scattered clouds,0.0,0.0
396,Lianran,CN,2020-04-19 06:37:57,24.92,102.48,81.0,31,40,20.13,scattered clouds,0.0,0.0
397,Warmbad,NA,2020-04-19 06:37:57,-28.45,18.73,72.59,17,17,6.55,few clouds,0.0,0.0
398,Pierre,US,2020-04-19 06:37:57,44.37,-100.35,41.0,60,1,12.75,clear sky,0.0,0.0
399,Willowmore,ZA,2020-04-19 06:37:57,-33.29,23.49,67.44,24,45,4.81,scattered clouds,0.0,0.0
400,Port Hardy,CA,2020-04-19 06:37:58,50.7,-127.42,46.4,93,90,4.7,mist,0.0,0.0
401,General Roca,AR,2020-04-19 06:37:58,-39.03,-67.58,64.4,42,26,10.29,scattered clouds,0.0,0.0
402,San Isidro,PE,2020-04-19 06:37:58,-12.12,-77.05,68.0,88,12,5.82,few clouds,0.0,0.0
403,Kalmunai,LK,2020-04-19 06:37:58,7.42,81.82,88.36,61,52,7.54,broken clouds,0.0,0.0
404,Buraydah,SA,2020-04-19 06:35:52,26.33,43.98,66.2,82,40,9.17,scattered clouds,0.0,0.0
405,Aloleng,PH,2020-04-19 06:37:59,16.13,119.78,88.12,63,67,12.24,broken clouds,0.0,0.0
406,Aguimes,ES,2020-04-19 06:37:59,27.91,-15.45,62.6,77,75,9.17,broken clouds,0.0,0.0
407,Kurilsk,RU,2020-04-19 06:37:59,45.23,147.88,39.74,70,96,5.5,overcast clouds,0.0,0.0
408,Vila Franca Do Campo,PT,2020-04-19 06:37:59,37.72,-25.43,60.8,93,75,8.05,broken clouds,0.0,0.0
409,Bambanglipuro,ID,2020-04-19 06:38:00,-7.95,110.28,86.31,66,89,6.33,light rain,0.19,0.0
410,Imbituba,BR,2020-04-19 06:38:00,-28.24,-48.67,64.4,93,19,2.24,few clouds,0.0,0.0
411,Zonguldak,TR,2020-04-19 06:38:00,41.25,31.83,59.49,46,21,2.55,few clouds,0.0,0.0
412,Kaitangata,NZ,2020-04-19 06:38:00,-46.28,169.85,52.0,61,64,3.0,light rain,0.17,0.0
413,Pangai,TO,2020-04-19 06:38:00,-19.8,-174.35,80.04,82,33,20.2,scattered clouds,0.0,0.0
414,Hamilton,US,2020-04-19 06:36:48,39.18,-84.53,44.01,80,1,6.93,clear sky,0.0,0.0
415,Dalvik,IS,2020-04-19 06:38:01,65.97,-18.53,35.6,93,90,11.41,drizzle,0.0,0.0
416,Nhulunbuy,AU,2020-04-19 06:38:01,-12.23,136.77,87.8,62,40,10.29,scattered clouds,0.0,0.0
417,Serenje,ZM,2020-04-19 06:38:01,-13.23,30.24,61.99,58,65,10.51,light rain,0.11,0.0
418,Nuuk,GL,2020-04-19 06:37:52,64.18,-51.72,24.8,73,99,14.99,light shower snow,0.0,0.0
419,Mweka,CD,2020-04-19 06:38:02,-4.85,21.57,70.72,84,100,3.18,light rain,1.3,0.0
420,Skjervoy,NO,2020-04-19 06:38:02,70.03,20.97,40.21,93,100,23.47,light rain,0.24,0.0
421,Ewa Beach,US,2020-04-19 06:38:02,21.32,-158.01,75.2,60,20,11.41,few clouds,0.0,0.0
422,Qasigiannguit,GL,2020-04-19 06:38:02,68.82,-51.19,21.2,62,85,21.92,light snow,0.0,0.0
423,Thinadhoo,MV,2020-04-19 06:38:02,0.53,72.93,84.47,74,100,10.92,overcast clouds,0.0,0.0
424,Boden,SE,2020-04-19 06:38:03,65.83,21.69,37.4,74,17,4.7,few clouds,0.0,0.0
425,Chudovo,RU,2020-04-19 06:38:03,59.12,31.68,36.59,84,94,7.78,overcast clouds,0.0,0.0
426,Boysun,UZ,2020-04-19 06:38:03,38.21,67.2,62.37,26,60,2.42,broken clouds,0.0,0.0
427,Talaya,RU,2020-04-19 06:38:03,61.38,152.75,2.25,81,100,13.27,light snow,0.0,0.15
428,Terney,RU,2020-04-19 06:38:03,45.05,136.61,47.53,56,24,4.81,few clouds,0.0,0.0
429,Fukue,JP,2020-04-19 06:38:04,32.69,128.84,55.4,100,75,9.17,shower rain,0.0,0.0
430,Nanortalik,GL,2020-04-19 06:33:42,60.14,-45.24,27.84,92,83,7.05,light snow,0.0,0.26
431,Nizip,TR,2020-04-19 06:38:04,37.01,37.79,68.0,49,9,1.32,clear sky,0.0,0.0
432,Dunedin,NZ,2020-04-19 06:37:10,-45.87,170.5,53.01,62,31,14.54,light rain,0.11,0.0
433,Tautira,PF,2020-04-19 06:38:05,-17.73,-149.15,78.8,88,75,4.7,broken clouds,0.0,0.0
434,Carutapera,BR,2020-04-19 06:38:05,-1.2,-46.02,78.35,83,100,3.04,overcast clouds,0.0,0.0
435,Gojo,JP,2020-04-19 06:38:05,34.35,135.7,64.4,55,75,2.24,broken clouds,0.0,0.0
436,Cabra,ES,2020-04-19 06:38:05,37.47,-4.44,57.99,93,100,2.24,light rain,1.19,0.0
437,Tura,IN,2020-04-19 06:38:05,25.52,90.22,82.08,57,74,6.62,broken clouds,0.0,0.0
438,Road Town,VG,2020-04-19 06:33:57,18.42,-64.62,80.01,84,5,15.99,clear sky,0.0,0.0
439,Kontagora,NG,2020-04-19 06:38:06,10.4,5.47,80.15,59,36,5.03,scattered clouds,0.0,0.0
440,Namatanai,PG,2020-04-19 06:38:06,-3.67,152.43,83.84,73,75,7.36,light rain,0.55,0.0
441,Asau,RO,2020-04-19 06:38:06,46.43,26.4,46.4,52,94,6.93,overcast clouds,0.0,0.0
442,Shimoda,JP,2020-04-19 06:38:06,34.67,138.95,68.0,56,40,8.05,scattered clouds,0.0,0.0
443,Nechi,CO,2020-04-19 06:38:06,8.09,-74.78,75.72,92,100,1.77,light rain,2.6,0.0
444,Hovd,MN,2020-04-19 06:38:07,48.01,91.64,44.01,29,0,4.9,clear sky,0.0,0.0
445,Baddomalhi,PK,2020-04-19 06:38:07,31.99,74.67,84.2,51,20,2.24,haze,0.0,0.0
446,Abu Samrah,SY,2020-04-19 06:38:07,35.3,37.18,69.69,37,40,0.54,scattered clouds,0.0,0.0
447,Aleksandrov Gay,RU,2020-04-19 06:38:07,50.15,48.57,48.43,51,77,2.24,broken clouds,0.0,0.0
448,Nieuw Nickerie,SR,2020-04-19 06:38:08,5.95,-56.98,79.86,82,81,9.93,light rain,0.34,0.0
449,Qom,IR,2020-04-19 06:38:08,34.64,50.88,68.56,30,99,1.95,overcast clouds,0.0,0.0
450,Pangkalanbuun,ID,2020-04-19 06:38:08,-2.68,111.62,78.35,91,100,5.21,light rain,2.21,0.0
451,Mabaruma,GY,2020-04-19 06:38:08,8.2,-59.78,75.15,90,22,5.46,few clouds,0.0,0.0
452,Puerto Carreno,CO,2020-04-19 06:38:09,6.19,-67.49,76.53,84,100,15.66,light rain,1.95,0.0
453,Caravelas,BR,2020-04-19 06:33:30,-17.71,-39.25,75.47,80,87,14.09,overcast clouds,0.0,0.0
454,Urumqi,CN,2020-04-19 06:36:11,43.8,87.6,69.8,30,3,6.71,clear sky,0.0,0.0
455,Sioux Lookout,CA,2020-04-19 06:38:10,50.1,-91.92,26.6,41,90,11.41,overcast clouds,0.0,0.0
456,Chepo,PA,2020-04-19 06:38:10,9.17,-79.1,77.13,82,88,6.85,overcast clouds,0.0,0.0
457,Hrebinka,UA,2020-04-19 06:38:10,50.12,32.44,45.57,54,93,5.44,overcast clouds,0.0,0.0
458,Teya,RU,2020-04-19 06:38:10,60.38,92.63,41.76,60,1,6.42,clear sky,0.0,0.0
459,Charters Towers,AU,2020-04-19 06:38:11,-20.1,146.27,91.17,29,14,4.65,few clouds,0.0,0.0
460,Padang,ID,2020-04-19 06:38:11,-0.95,100.35,85.6,73,18,3.83,moderate rain,3.72,0.0
461,Prince Rupert,CA,2020-04-19 06:38:11,54.32,-130.32,42.8,100,1,1.07,clear sky,0.0,0.0
462,Kasane,BW,2020-04-19 06:38:11,-17.82,25.15,71.6,68,88,10.29,overcast clouds,0.0,0.0
463,Adelaide,AU,2020-04-19 06:33:21,-34.93,138.6,71.01,56,99,6.93,overcast clouds,0.0,0.0
464,Dire,ML,2020-04-19 06:38:12,12.28,-10.97,78.22,27,45,2.21,scattered clouds,0.0,0.0
465,Baruun-Urt,MN,2020-04-19 06:38:12,46.68,113.28,41.34,38,95,17.83,overcast clouds,0.0,0.0
466,Lumphat,KH,2020-04-19 06:38:12,13.49,106.98,94.48,47,55,4.94,light rain,0.14,0.0
467,Sao Filipe,CV,2020-04-19 06:38:12,14.9,-24.5,70.83,71,6,15.46,clear sky,0.0,0.0
468,Pathein,MM,2020-04-19 06:38:12,16.78,94.73,97.99,29,0,8.14,clear sky,0.0,0.0
469,Ola,RU,2020-04-19 06:38:13,59.58,151.28,15.82,83,69,10.54,broken clouds,0.0,0.0
470,Marck,FR,2020-04-19 06:38:13,50.95,1.94,50.0,85,4,10.96,clear sky,0.0,0.0
471,Le Port,RE,2020-04-19 06:33:55,-20.94,55.29,77.0,88,75,18.34,broken clouds,0.0,0.0
472,Mocuba,MZ,2020-04-19 06:38:13,-16.84,36.99,74.79,88,27,5.57,light rain,1.64,0.0
473,Husavik,IS,2020-04-19 06:38:13,66.04,-17.34,35.6,93,90,11.41,drizzle,0.0,0.0
474,Tzintzuntzan,MX,2020-04-19 06:38:14,19.62,-101.58,71.6,43,5,6.93,clear sky,0.0,0.0
475,Wilhelmshaven,DE,2020-04-19 06:38:14,53.52,8.13,46.0,70,0,9.17,clear sky,0.0,0.0
476,Tarakan,ID,2020-04-19 06:38:14,3.3,117.63,84.0,71,60,2.17,light rain,1.97,0.0
477,Luganville,VU,2020-04-19 06:38:14,-15.53,167.17,80.6,88,40,3.36,scattered clouds,0.0,0.0
478,Rovinj,HR,2020-04-19 06:38:15,45.08,13.64,59.0,62,60,5.82,broken clouds,0.0,0.0
479,Faanui,PF,2020-04-19 06:38:15,-16.48,-151.75,83.21,74,80,11.77,broken clouds,0.0,0.0
480,Dali,CN,2020-04-19 06:38:15,25.7,100.18,77.86,15,12,12.35,few clouds,0.0,0.0
481,Oranjemund,NA,2020-04-19 06:38:15,-28.55,16.43,59.13,79,51,1.7,broken clouds,0.0,0.0
482,Tsagan Aman,RU,2020-04-19 06:38:15,47.56,46.72,51.22,61,100,2.91,overcast clouds,0.0,0.0
483,Port Moresby,PG,2020-04-19 06:37:54,-9.44,147.18,87.8,70,40,11.41,haze,0.0,0.0
484,Meridian,US,2020-04-19 06:38:16,43.61,-116.39,54.0,46,97,4.7,overcast clouds,0.0,0.0
485,Shingu,JP,2020-04-19 06:38:16,33.73,135.98,64.4,52,75,13.87,broken clouds,0.0,0.0
486,Besikduzu,TR,2020-04-19 06:38:16,41.05,39.23,55.4,82,40,5.82,scattered clouds,0.0,0.0
487,Andalan,PH,2020-04-19 06:38:16,5.96,121.39,85.33,62,43,5.19,scattered clouds,0.0,0.0
488,Myitkyina,MM,2020-04-19 06:38:16,25.38,97.4,100.27,19,0,4.99,clear sky,0.0,0.0
489,Cootehill,IE,2020-04-19 06:38:17,54.07,-7.08,48.0,86,96,8.99,overcast clouds,0.0,0.0
490,Ust-Nera,RU,2020-04-19 06:38:17,64.57,143.2,9.0,77,97,5.64,overcast clouds,0.0,0.0
491,Kshenskiy,RU,2020-04-19 06:38:17,51.84,37.71,41.65,63,72,7.58,broken clouds,0.0,0.0
492,Vilhena,BR,2020-04-19 06:38:17,-12.74,-60.15,66.76,85,47,2.93,scattered clouds,0.0,0.0
493,Sajanan,TN,2020-04-19 06:38:17,37.06,9.24,75.2,33,94,2.24,overcast clouds,0.0,0.0
494,Hobyo,SO,2020-04-19 06:38:18,5.35,48.53,87.69,59,87,8.86,light rain,2.58,0.0
495,Port Macquarie,AU,2020-04-19 06:38:18,-31.43,152.92,72.0,73,8,1.99,light rain,2.29,0.0
496,Azul,AR,2020-04-19 06:38:18,-36.78,-59.86,57.99,82,52,1.99,broken clouds,0.0,0.0
497,San Ramon,US,2020-04-19 06:38:18,37.78,-121.98,53.6,81,1,5.82,clear sky,0.0,0.0
498,Shimanovsk,RU,2020-04-19 06:38:18,52.0,127.7,37.24,68,100,14.54,light snow,0.0,0.57
499,Makakilo City,US,2020-04-19 06:38:19,21.35,-158.09,75.2,77,1,8.05,clear sky,0.0,0.0
500,Huanren,CN,2020-04-19 06:38:19,41.26,125.37,55.11,60,100,8.14,light rain,1.3,0.0
501,Pahrump,US,2020-04-19 06:38:19,36.21,-115.98,57.99,55,0,1.99,clear sky,0.0,0.0
502,Ziarat,PK,2020-04-19 06:38:19,30.38,67.73,56.71,18,72,7.7,broken clouds,0.0,0.0
503,Sao Sebastiao Do Paraiso,BR,2020-04-19 06:38:20,-20.92,-46.99,59.43,73,95,5.59,overcast clouds,0.0,0.0
504,Yar-Sale,RU,2020-04-19 06:38:20,66.83,70.83,35.29,98,100,17.74,moderate rain,3.56,0.0
505,Vila Velha,BR,2020-04-19 06:38:20,-20.33,-40.29,73.99,78,76,8.05,light rain,0.46,0.0
506,Bajil,YE,2020-04-19 06:38:20,15.06,43.29,87.21,46,100,9.55,light rain,0.93,0.0
507,Anuradhapura,LK,2020-04-19 06:38:20,8.36,80.42,92.93,47,21,6.08,light rain,0.75,0.0
508,Umuarama,BR,2020-04-19 06:38:21,-23.77,-53.33,59.0,70,1,7.96,clear sky,0.0,0.0
509,Biak,ID,2020-04-19 06:38:21,-0.91,122.88,85.01,66,34,4.54,light rain,2.45,0.0
510,Urucara,BR,2020-04-19 06:38:21,-2.54,-57.76,73.94,97,100,1.92,light rain,2.22,0.0
511,Keshabpur,BD,2020-04-19 06:38:21,22.92,89.21,99.68,34,0,10.54,clear sky,0.0,0.0
512,Vysotsk,RU,2020-04-19 06:38:21,60.63,28.57,41.0,69,20,10.29,few clouds,0.0,0.0
513,Morwell,AU,2020-04-19 06:38:22,-38.23,146.4,63.0,62,71,1.99,broken clouds,0.0,0.0
514,Horta,PT,2020-04-19 06:38:22,38.53,-28.63,60.8,72,40,20.8,scattered clouds,0.0,0.0
515,Nsanje,MW,2020-04-19 06:38:22,-16.92,35.26,76.35,77,30,6.82,scattered clouds,0.0,0.0
516,Eregli,TR,2020-04-19 06:38:22,37.51,34.05,60.76,34,0,4.43,clear sky,0.0,0.0
517,Horni Plana,CZ,2020-04-19 06:38:23,48.77,14.03,51.01,93,90,1.01,light rain,0.69,0.0
518,Bani Walid,LY,2020-04-19 06:38:23,31.76,13.99,64.74,40,13,5.53,few clouds,0.0,0.0
519,Moron,AR,2020-04-19 06:38:23,-34.65,-58.62,64.0,85,0,10.2,clear sky,0.0,0.0
520,Beisfjord,NO,2020-04-19 06:38:23,68.38,17.6,39.2,93,100,19.46,light rain,0.74,0.0
521,Karaton,ID,2020-04-19 06:38:23,-6.34,106.1,91.4,59,20,13.87,few clouds,0.0,0.0
522,Ulladulla,AU,2020-04-19 06:38:24,-35.35,150.47,64.99,82,40,12.75,scattered clouds,0.0,0.0
523,Krasnoborsk,RU,2020-04-19 06:38:24,61.56,45.93,39.92,74,6,3.83,clear sky,0.0,0.0
524,College,US,2020-04-19 06:38:24,64.86,-147.8,42.8,86,90,2.1,overcast clouds,0.0,0.0
525,Agadez,NE,2020-04-19 06:38:24,19.75,10.25,80.53,13,17,7.74,few clouds,0.0,0.0
526,Caraballeda,VE,2020-04-19 06:38:25,10.61,-66.85,70.0,74,52,5.39,broken clouds,0.0,0.0
527,Hot Springs,US,2020-04-19 06:36:30,34.5,-93.06,54.0,81,90,3.36,moderate rain,0.0,0.0
528,Luanda,AO,2020-04-19 06:38:25,-8.84,13.23,77.0,94,75,3.36,broken clouds,0.0,0.0
529,Chernigovka,RU,2020-04-19 06:38:25,44.34,132.57,59.36,37,100,16.64,overcast clouds,0.0,0.0
530,Mae Chan,TH,2020-04-19 06:38:25,20.15,99.85,99.0,39,6,5.82,clear sky,0.0,0.0
531,Kulachi,PK,2020-04-19 06:38:26,31.93,70.46,80.8,34,58,0.38,broken clouds,0.0,0.0
532,Sisimiut,GL,2020-04-19 06:38:26,66.94,-53.67,20.25,92,50,13.65,light snow,0.0,0.14
533,Samoded,RU,2020-04-19 06:38:26,63.61,40.51,34.09,89,64,5.55,broken clouds,0.0,0.0
534,Praya,CV,2020-04-19 06:33:52,14.92,-23.51,71.6,56,75,14.99,broken clouds,0.0,0.0
535,Daman,IN,2020-04-19 06:38:26,20.42,72.85,97.54,29,18,5.5,few clouds,0.0,0.0
536,Harindanga,IN,2020-04-19 06:38:27,22.04,88.32,91.4,63,40,14.99,haze,0.0,0.0
537,Aras,ES,2020-04-19 06:38:27,42.56,-2.36,53.6,100,90,2.24,overcast clouds,0.0,0.0
538,Sulangan,PH,2020-04-19 06:38:27,11.14,123.72,85.78,65,24,6.15,few clouds,0.0,0.0
539,Fayaoue,NC,2020-04-19 06:38:27,-20.65,166.53,79.23,82,79,12.57,broken clouds,0.0,0.0
540,Reconquista,AR,2020-04-19 06:38:27,-29.15,-59.65,58.1,68,0,5.26,clear sky,0.0,0.0
541,Lucea,JM,2020-04-19 06:38:28,18.45,-78.17,78.8,78,20,5.82,few clouds,0.0,0.0
542,Manaure,CO,2020-04-19 06:38:28,11.78,-72.44,79.0,78,9,11.72,clear sky,0.0,0.0
543,Ciudad Bolivar,VE,2020-04-19 06:38:28,8.12,-63.55,78.28,67,55,9.86,broken clouds,0.0,0.0
544,Pacific Grove,US,2020-04-19 06:38:28,36.62,-121.92,52.0,81,1,3.36,clear sky,0.0,0.0
545,Margate,GB,2020-04-19 06:37:13,51.38,1.39,48.99,83,1,4.0,clear sky,0.0,0.0
546,Kushima,JP,2020-04-19 06:38:29,31.46,131.23,64.4,68,75,12.75,broken clouds,0.0,0.0
547,Estevan,CA,2020-04-19 06:38:29,49.13,-102.98,19.4,85,1,4.7,clear sky,0.0,0.0
548,Mehamn,NO,2020-04-19 06:38:29,71.04,27.85,38.05,90,98,13.76,light rain,0.29,0.0
549,Pundaguitan,PH,2020-04-19 06:38:29,6.37,126.17,83.1,75,96,12.1,light rain,0.96,0.0
550,Silva Jardim,BR,2020-04-19 06:38:30,-22.65,-42.39,66.65,81,94,2.24,overcast clouds,0.0,0.0
551,Autazes,BR,2020-04-19 06:38:30,-3.58,-59.13,73.27,97,100,1.41,light rain,2.95,0.0
552,Linguere,SN,2020-04-19 06:38:30,15.4,-15.12,65.21,72,52,10.07,broken clouds,0.0,0.0
553,Cabedelo,BR,2020-04-19 06:38:30,-6.98,-34.83,77.0,94,20,3.36,few clouds,0.0,0.0
554,Maiduguri,NG,2020-04-19 06:34:07,11.85,13.16,79.38,16,80,3.27,broken clouds,0.0,0.0
555,Villa Union,MX,2020-04-19 06:38:31,23.2,-106.23,70.0,85,0,1.01,clear sky,0.0,0.0
